City_ID,City,Lat,Lng,Max Temp,Humidity,Cloudiness,Wind Speed,Country,Date
0,igualada,41.581,1.6172,14.629999999999995,84,42,0.75,ES,1667866485
1,krasnoselkup,65.7,82.4667,-6.289999999999964,96,100,3.35,RU,1667866287
2,butaritari,3.0707,172.7902,26.80000000000001,74,54,2.66,KI,1667866208
3,cabedelo,-6.9811,-34.8339,26.370000000000005,74,65,4.16,BR,1667866485
4,tasiilaq,65.6145,-37.6368,-1.2099999999999795,97,100,3.05,GL,1667866229
5,albany,42.6001,-73.9662,12.020000000000039,45,5,0.45,US,1667866208
6,ponta do sol,32.6667,-17.1,20.400000000000034,87,76,1.86,PT,1667866486
7,rikitea,-23.1203,-134.9692,23.07000000000005,92,100,9.0,PF,1667866487
8,katra,32.9833,74.95,12.370000000000005,55,15,4.82,IN,1667866487
9,dubrovka,53.6907,33.5071,4.25,81,100,4.96,RU,1667866488
10,mahon,39.8885,4.2658,18.310000000000002,77,75,2.57,ES,1667866482
11,leningradskiy,69.3833,178.4167,-9.349999999999966,87,100,2.84,RU,1667866488
12,saskylakh,71.9167,114.0833,-30.909999999999968,99,26,2.46,RU,1667866488
13,kudahuvadhoo,2.6708,72.8944,27.350000000000023,73,9,4.15,MV,1667866489
14,ribeira grande,38.5167,-28.7,17.100000000000023,72,100,2.24,PT,1667866489
15,hambantota,6.1241,81.1185,25.150000000000034,84,99,1.67,LK,1667866490
16,rongcheng,30.634,117.8517,16.24000000000001,65,0,1.57,CN,1667866490
17,vaini,-21.2,-175.2,24.350000000000023,75,83,5.61,TO,1667866216
18,port alfred,-33.5906,26.891,17.879999999999995,90,100,2.24,ZA,1667866491
19,hualmay,-11.0964,-77.6139,17.74000000000001,82,12,3.2,PE,1667866339
20,santa rosa,14.3122,121.1114,27.840000000000032,85,83,3.99,PH,1667866131
21,yellowknife,62.456,-114.3525,-15.799999999999955,96,87,1.21,CA,1667865842
22,busselton,-33.65,115.3333,15.840000000000032,71,25,5.16,AU,1667866204
23,qaanaaq,77.484,-69.3632,-18.109999999999985,97,100,3.07,GL,1667866300
24,ushuaia,-54.8,-68.3,14.810000000000002,55,75,6.69,AR,1667866266
25,saint george,37.1041,-113.5841,19.970000000000027,34,0,6.69,US,1667866492
26,saint-philippe,-21.3585,55.7679,21.77000000000004,79,62,3.81,RE,1667866374
27,punta arenas,-53.15,-70.9167,13.060000000000002,67,0,7.72,CL,1667866211
28,saldanha,-33.0117,17.9442,15.54000000000002,86,27,2.8,ZA,1667866235
29,cape town,-33.9258,18.4232,16.180000000000007,85,16,0.45,ZA,1667866493
30,saint-georges,12.0564,-61.7485,26.640000000000043,83,53,4.84,GD,1667866392
31,mataura,-46.1927,168.8643,18.600000000000023,41,78,1.87,NZ,1667866202
32,pisco,-13.7,-76.2167,17.03000000000003,82,0,5.14,PE,1667866360
33,olafsvik,64.8945,-23.7142,5.78000000000003,74,89,6.35,IS,1667866494
34,hermanus,-34.4187,19.2345,11.560000000000002,87,40,3.19,ZA,1667866494
35,thompson,55.7435,-97.8558,-19.819999999999965,99,59,1.22,CA,1667866279
36,vila franca do campo,37.7167,-25.4333,16.230000000000018,86,100,2.86,PT,1667866328
37,strezhevoy,60.7333,77.5889,-4.359999999999957,93,100,3.09,RU,1667866495
38,pasuruan,-7.6453,112.9075,24.939999999999998,74,99,0.36,ID,1667866496
39,cabra,37.4725,-4.4421,13.150000000000034,57,12,1.02,ES,1667866496
40,sampit,-2.5333,112.95,24.170000000000016,92,100,1.72,ID,1667866497
41,cherskiy,68.75,161.3,-21.72999999999999,99,18,1.16,RU,1667866322
42,annau,37.8876,58.516,5.32000000000005,57,36,2.16,TM,1667866497
43,tiksi,71.6872,128.8694,-17.329999999999984,91,100,8.26,RU,1667866498
44,bethel,41.3712,-73.414,20.200000000000045,18,0,3.6,US,1667866498
45,solnechnyy,50.7214,136.6319,-1.8899999999999864,55,94,0.97,RU,1667866499
46,kangaatsiaq,68.3065,-53.4641,-9.759999999999991,86,95,3.72,GL,1667866499
47,camocim,-2.9022,-40.8411,25.860000000000014,79,87,6.15,BR,1667866500
48,rawson,-43.3002,-65.1023,17.710000000000036,58,82,7.33,AR,1667866408
49,tselinnoye,53.0833,85.6667,-1.7399999999999523,84,100,1.63,RU,1667866500
50,sitka,57.0531,-135.33,-0.9099999999999682,41,1,2.92,US,1667866255
51,san vicente,-26.6167,-54.1333,13.260000000000048,78,2,1.44,AR,1667866264
52,barrow,71.2906,-156.7887,-3.9899999999999523,80,100,10.29,US,1667866242
53,hobart,-42.8794,147.3294,23.920000000000016,55,0,3.6,AU,1667866245
54,cleethorpes,53.5605,-0.0323,14.140000000000043,77,100,10.87,GB,1667866502
55,naze,28.3667,129.4833,20.200000000000045,61,6,4.49,JP,1667866309
56,kapaa,22.0752,-159.319,28.99000000000001,72,20,6.17,US,1667866503
57,new norfolk,-42.7826,147.0587,23.730000000000018,36,87,0.89,AU,1667866504
58,gamba,-2.65,10.0,24.78000000000003,90,88,2.92,GA,1667866505
59,torbay,47.6666,-52.7314,16.430000000000007,95,100,11.32,CA,1667866277
60,gasa,31.5,34.4667,19.930000000000007,63,3,5.5,PS,1667866208
61,urgut,39.4022,67.2431,2.7900000000000205,98,100,1.44,UZ,1667866506
62,hasaki,35.7333,140.8333,15.160000000000025,65,38,6.72,JP,1667866506
63,sal rei,16.1833,-22.9167,25.760000000000048,65,94,4.53,CV,1667866507
64,fairbanks,64.8378,-147.7164,-6.2099999999999795,71,100,0.0,US,1667866298
65,sao joao da barra,-21.6403,-41.0511,21.590000000000032,73,51,2.58,BR,1667866508
66,atuona,-9.8,-139.0333,25.03000000000003,69,79,6.05,PF,1667866290
67,kharp,66.8014,65.8081,-7.560000000000002,90,94,3.39,RU,1667866508
68,longyearbyen,78.2186,15.6401,-4.089999999999975,80,75,6.17,SJ,1667866313
69,brae,60.3964,-1.353,11.04000000000002,97,100,9.64,GB,1667866374
70,hamilton,39.1834,-84.5333,15.410000000000025,35,0,3.6,US,1667866231
71,matagami,49.7502,-77.6328,-0.9199999999999591,82,100,6.34,CA,1667866355
72,waipawa,-41.4122,175.5153,16.5,59,4,3.21,NZ,1667866510
73,khatanga,71.9667,102.5,-14.46999999999997,96,100,2.42,RU,1667866281
74,beloha,-25.1667,45.05,22.05000000000001,82,0,1.27,MG,1667866390
75,nemuro,43.3236,145.575,8.189999999999998,62,93,2.11,JP,1667866462
76,hithadhoo,-0.6,73.0833,27.53000000000003,77,60,8.14,MV,1667866511
77,djambala,-2.5447,14.7533,19.54000000000002,94,98,0.5,CG,1667866512
78,changli,39.7042,119.1506,8.170000000000016,60,2,1.2,CN,1667866512
79,vila velha,-20.3297,-40.2925,23.30000000000001,79,39,1.43,BR,1667866513
80,kieta,-6.2167,155.6333,29.600000000000023,70,23,3.19,PG,1667866513
81,karasjok,69.4719,25.5112,-1.3700000000000045,93,89,3.02,NO,1667866514
82,geraldton,-28.7667,114.6,19.230000000000018,77,75,6.69,AU,1667866252
83,tautira,-17.7333,-149.15,24.640000000000043,84,10,5.71,PF,1667866514
84,buala,-8.145,159.5921,28.660000000000025,77,89,3.64,SB,1667866236
85,codrington,-38.2667,141.9667,22.30000000000001,68,3,4.43,AU,1667866515
86,jamestown,42.097,-79.2353,9.770000000000039,60,0,3.6,US,1667866308
87,oskemen,49.9565,82.6119,-1.0199999999999818,100,100,2.0,KZ,1667866516
88,hilo,19.7297,-155.09,27.920000000000016,73,40,4.12,US,1667866452
89,nizhnevartovsk,60.9344,76.5531,-2.9899999999999523,100,100,4.02,RU,1667866517
90,haimen,23.1935,116.6142,21.28000000000003,83,71,3.68,CN,1667866517
91,loikaw,19.6742,97.2094,15.32000000000005,91,4,1.22,MM,1667866518
92,nyurba,63.2842,118.3319,-16.069999999999993,97,98,1.85,RU,1667866519
93,yumen,40.2833,97.2,0.4399999999999977,43,22,0.38,CN,1667866519
94,brazzaville,-4.2658,15.2832,23.720000000000027,84,88,0.42,CG,1667866520
95,jardim,-21.4803,-56.1381,20.52000000000004,52,62,2.41,BR,1667866520
96,vallenar,-28.5708,-70.7581,19.29000000000002,57,99,1.69,CL,1667866521
97,bluff,-46.6,168.3333,18.78000000000003,67,63,2.76,NZ,1667866521
98,sterling,39.0062,-77.4286,21.410000000000025,47,0,2.57,US,1667866522
99,beira,-19.8436,34.8389,25.140000000000043,83,4,3.88,MZ,1667866522
100,east london,-33.0153,27.9116,19.960000000000036,86,100,6.18,ZA,1667866522
101,san jose,37.3394,-121.895,14.82000000000005,65,75,6.17,US,1667865811
102,santa vitoria do palmar,-33.5189,-53.3681,15.29000000000002,81,0,4.48,BR,1667866523
103,ishigaki,24.3448,124.1572,24.53000000000003,82,63,7.6,JP,1667866347
104,srednekolymsk,67.45,153.6833,-21.75999999999999,100,96,3.19,RU,1667866342
105,lavrentiya,65.5833,-171.0,-1.67999999999995,97,100,10.01,RU,1667866343
106,hami,42.8,93.45,6.689999999999998,32,100,0.41,CN,1667866524
107,lorengau,-2.0226,147.2712,30.210000000000036,66,85,2.24,PG,1667866296
108,chuy,-33.6971,-53.4616,14.810000000000002,84,4,4.17,UY,1667866525
109,mehamn,71.0357,27.8492,0.9700000000000273,93,75,2.06,NO,1667866525
110,bredasdorp,-34.5322,20.0403,14.03000000000003,90,29,2.55,ZA,1667866236
111,brokopondo,4.75,-55.1667,24.010000000000048,92,100,2.85,SR,1667866527
112,baherden,38.4362,57.4316,5.430000000000007,59,8,0.64,TM,1667866527
113,yulara,-25.2406,130.9889,30.02000000000004,32,69,5.27,AU,1667866337
114,san patricio,28.017,-97.5169,26.920000000000016,77,4,4.94,US,1667866529
115,katsuura,35.1333,140.3,16.470000000000027,79,13,4.73,JP,1667866530
116,nobres,-14.7203,-56.3275,24.960000000000036,35,0,1.11,BR,1667866530
117,krasnokamensk,50.0979,118.0369,-6.5,87,31,1.01,RU,1667866530
118,puerto ayora,-0.7393,-90.3518,19.75,85,91,1.34,EC,1667866301
119,rantepao,-2.9701,119.8978,23.220000000000027,82,86,0.68,ID,1667866531
120,carolina,18.3808,-65.9574,24.980000000000018,90,96,3.13,PR,1667866531
121,kralendijk,12.15,-68.2667,27.99000000000001,89,20,3.09,BQ,1667866532
122,morondava,-20.2833,44.2833,25.210000000000036,72,17,1.29,MG,1667866532
123,mayumba,-3.432,10.6554,25.04000000000002,90,67,2.68,GA,1667866532
124,dasoguz,41.8363,59.9666,2.9700000000000273,100,100,5.14,TM,1667866533
125,maryville,35.7565,-83.9705,21.720000000000027,89,40,0.0,US,1667866533
126,nueva loja,0.0847,-76.8828,25.220000000000027,74,90,0.18,EC,1667866533
127,paso de carrasco,-34.8603,-56.0522,18.08000000000004,72,0,5.14,UY,1667866534
128,bambous virieux,-20.3428,57.7575,22.140000000000043,88,20,2.06,MU,1667866534
129,la granja,10.4,122.9833,27.950000000000045,77,77,0.93,PH,1667866535
130,yorkton,51.2167,-102.4677,-8.189999999999998,91,100,7.24,CA,1667866502
131,salalah,17.0151,54.0924,24.05000000000001,83,0,1.54,OM,1667866392
132,benavente,42.0025,-5.6783,11.480000000000018,83,70,4.47,ES,1667866535
133,makakilo city,21.3469,-158.0858,29.180000000000007,59,40,8.75,US,1667866475
134,lyuban,52.7985,28.0048,7.8799999999999955,96,100,3.5,BY,1667866536
135,souillac,-20.5167,57.5167,22.129999999999995,80,2,3.55,MU,1667866310
136,korsakov,46.6328,142.7813,0.910000000000025,65,84,2.74,RU,1667866536
137,ostrovnoy,68.0531,39.5131,-0.8799999999999955,94,96,1.95,RU,1667866537
138,cidreira,-30.1811,-50.2056,16.650000000000034,82,34,5.47,BR,1667866537
139,clarence town,-32.5833,151.7833,23.120000000000005,53,15,2.93,AU,1667866538
140,saint-augustin,51.226,-58.6502,10.330000000000041,88,79,9.67,CA,1667866538
141,sorong,-0.8833,131.25,27.310000000000002,81,93,2.44,ID,1667866457
142,mount isa,-20.7333,139.5,33.870000000000005,27,0,3.6,AU,1667866539
143,porto velho,-8.7619,-63.9039,27.620000000000005,45,25,0.29,BR,1667866248
144,fukue,32.6881,128.8419,17.200000000000045,67,0,2.06,JP,1667866539
145,juba,4.8517,31.5825,24.24000000000001,67,98,1.43,SS,1667866400
146,atyrau,47.1167,51.8833,2.0100000000000477,75,75,1.0,KZ,1667866540
147,gat,31.61,34.7642,19.32000000000005,12,3,2.62,IL,1667866314
148,kruisfontein,-34.0033,24.7314,14.100000000000023,83,100,2.35,ZA,1667866541
149,saint-francois,46.4154,3.9054,5.689999999999998,93,0,1.03,FR,1667866480
150,aklavik,68.2191,-135.0107,-17.99999999999997,85,40,1.54,CA,1667866541
151,digora,43.1581,44.1569,0.36000000000001364,75,46,1.1,RU,1667866312
152,ngunguru,-35.6167,174.5,15.650000000000034,97,100,12.19,NZ,1667866542
153,angoche,-16.2325,39.9086,24.29000000000002,81,5,5.08,MZ,1667866543
154,illela,13.7292,5.2975,24.58000000000004,17,24,4.4,NG,1667866543
155,husavik,66.0449,-17.3389,4.230000000000018,93,100,5.47,IS,1667866543
156,adrar,20.5022,-10.0711,24.560000000000002,16,0,3.61,MR,1667866544
157,vao,-22.6667,167.4833,23.590000000000032,85,85,7.76,NC,1667866544
158,dikson,73.5069,80.5464,-14.859999999999957,94,100,4.21,RU,1667866269
159,guiratinga,-16.3494,-53.7583,24.230000000000018,35,12,1.35,BR,1667866367
160,fort nelson,58.8053,-122.7002,-17.809999999999974,100,7,1.2,CA,1667866400
161,garden city,42.3256,-83.331,10.080000000000041,47,75,3.09,US,1667866545
162,arraial do cabo,-22.9661,-42.0278,19.980000000000018,88,75,1.54,BR,1667866545
163,ahipara,-35.1667,173.1667,16.82000000000005,87,90,6.14,NZ,1667866546
164,mahebourg,-20.4081,57.7,22.160000000000025,88,20,2.06,MU,1667866546
165,tuatapere,-46.1333,167.6833,17.82000000000005,52,96,2.13,NZ,1667866546
166,constitucion,-35.3333,-72.4167,12.760000000000048,81,100,4.42,CL,1667866547
167,banjar,-8.19,114.9675,28.010000000000048,75,87,0.8,ID,1667866547
168,emba,48.8264,58.1442,-4.509999999999991,93,20,2.36,KZ,1667866547
169,provideniya,64.3833,-173.3,0.060000000000002274,74,100,8.0,RU,1667866283
170,boyolangu,-8.1181,111.8935,24.720000000000027,90,100,1.38,ID,1667866302
171,volchikha,52.0333,80.3833,-4.099999999999966,85,50,1.38,RU,1667866548
172,la libertad,-2.2333,-80.9,19.620000000000005,81,53,4.25,EC,1667866549
173,morros,-9.4467,-46.3003,23.77000000000004,80,100,0.92,BR,1667866549
174,tuktoyaktuk,69.4541,-133.0374,-17.0,78,20,4.12,CA,1667866550
175,korla,41.7597,86.1469,7.420000000000016,41,93,1.29,CN,1667866258
176,touros,-5.1989,-35.4608,25.720000000000027,75,96,5.08,BR,1667866550
177,nizhniy tsasuchey,50.5167,115.1333,-2.4499999999999886,62,15,2.17,RU,1667866338
178,la ronge,55.1001,-105.2842,-11.879999999999995,79,75,4.63,CA,1667866365
179,avarua,-21.2078,-159.775,24.03000000000003,73,75,3.6,CK,1667866304
180,katherine,-14.4667,132.2667,31.180000000000007,51,25,4.63,AU,1667866506
181,gizo,-8.103,156.8419,28.670000000000016,73,90,3.83,SB,1667866364
182,huai thalaeng,14.997,102.6475,21.200000000000045,80,33,2.78,TH,1667866552
183,kuytun,54.3419,101.5036,-6.259999999999991,91,99,1.98,RU,1667866552
184,lebu,-37.6167,-73.65,12.670000000000016,81,54,4.44,CL,1667866553
185,ilulissat,69.2167,-51.1,-21.579999999999984,88,21,3.0,GL,1667866553
186,port lincoln,-34.7333,135.8667,25.52000000000004,42,99,7.5,AU,1667866554
187,antalaha,-14.9003,50.2788,19.99000000000001,86,65,2.55,MG,1667866554
188,matara,5.9485,80.5353,24.430000000000007,87,100,0.7,LK,1667866413
189,miranda de ebro,42.6865,-2.947,17.77000000000004,69,100,3.2,ES,1667866554
190,chambas,22.1928,-78.9136,23.810000000000002,79,7,3.56,CU,1667866555
191,luderitz,-26.6481,15.1594,16.30000000000001,88,41,4.21,NA,1667866555
192,havoysund,70.9963,24.6622,4.1299999999999955,71,85,5.27,NO,1667866555
193,broome,42.2506,-75.833,10.390000000000043,54,0,5.14,US,1667866556
194,nome,64.5011,-165.4064,0.040000000000020464,93,100,15.43,US,1667866556
195,bima,-8.4667,118.7167,27.600000000000023,78,97,1.61,ID,1667866557
196,meulaboh,4.1363,96.1285,24.640000000000043,87,94,0.9,ID,1667866557
197,labuhan,-6.8844,112.2051,26.350000000000023,80,100,2.37,ID,1667866517
198,port elizabeth,-33.918,25.5701,17.400000000000034,87,0,7.2,ZA,1667866558
199,mackay,-21.15,149.2,27.05000000000001,61,1,6.39,AU,1667866357
200,helong,42.5397,128.9972,2.8600000000000136,54,3,2.38,CN,1667866558
201,yabelo,4.8833,38.0833,14.879999999999995,78,100,3.08,ET,1667866558
202,baghdad,33.3406,44.4009,12.950000000000045,50,0,2.57,IQ,1667866545
203,vostok,46.4856,135.8833,-0.12999999999999545,70,31,2.1,RU,1667866559
204,kismayo,-0.3582,42.5454,25.100000000000023,87,28,3.53,SO,1667866559
205,la romana,18.4273,-68.9728,25.200000000000045,100,75,0.0,DO,1667866560
206,pinhao,-25.6956,-51.6597,11.600000000000023,73,31,1.8,BR,1667866560
207,arona,28.0996,-16.681,20.77000000000004,62,20,3.09,ES,1667866562
208,notse,6.95,1.1667,23.970000000000027,88,79,1.93,TG,1667866563
209,golden,39.7555,-105.2211,12.5,52,40,2.06,US,1667866508
210,ende,-8.8432,121.6623,27.140000000000043,83,97,0.29,ID,1667866563
211,great yarmouth,52.6083,1.7305,14.689999999999998,79,100,11.64,GB,1667866564
212,rocha,-34.4833,-54.3333,12.050000000000011,93,0,2.86,UY,1667866564
213,samarai,-10.6167,150.6667,28.760000000000048,70,9,2.98,PG,1667866460
214,iqaluit,63.7506,-68.5145,-7.389999999999986,62,100,6.71,CA,1667866285
215,coihaique,-45.5752,-72.0662,13.340000000000032,88,0,1.03,CL,1667866298
216,oconomowoc,43.1117,-88.4993,5.900000000000034,63,0,3.09,US,1667866430
217,mar del plata,-38.0023,-57.5575,17.83000000000004,88,0,6.71,AR,1667866566
218,hervey bay,-25.2986,152.8535,22.560000000000002,55,31,6.29,AU,1667866566
219,isangel,-19.55,169.2667,24.060000000000002,94,75,5.66,VU,1667866567
220,padang,-0.9492,100.3543,24.03000000000003,85,100,1.14,ID,1667866567
221,north platte,41.1239,-100.7654,8.939999999999998,34,0,5.81,US,1667866415
222,fuerte,17.5381,120.3644,28.950000000000045,59,57,1.75,PH,1667866568
223,kirkland lake,48.1446,-80.0377,-0.17999999999994998,73,87,5.24,CA,1667866568
224,tuy hoa,13.0833,109.3,23.650000000000034,87,100,3.18,VN,1667866569
225,mantua,45.1667,10.7833,8.580000000000041,66,13,1.34,IT,1667866569
226,victoria,22.2855,114.1577,22.920000000000016,89,99,5.81,HK,1667866299
227,ilhabela,-23.7781,-45.3581,18.620000000000005,86,98,1.66,BR,1667866570
228,kashi,39.4547,75.9797,6.560000000000002,65,0,2.0,CN,1667866571
229,omboue,-1.5746,9.2618,24.350000000000023,93,99,2.55,GA,1667866571
230,kiunga,-6.1219,141.2906,23.920000000000016,98,100,1.05,PG,1667866572
231,rypefjord,70.6333,23.6667,3.2600000000000477,87,40,3.6,NO,1667866572
232,mercedes,-34.6515,-59.4307,19.879999999999995,60,1,4.7,AR,1667866409
233,kuvandyk,51.4781,57.3552,-11.029999999999973,100,100,1.36,RU,1667866573
234,deputatskiy,69.3,139.9,-21.139999999999986,94,100,2.59,RU,1667866574
235,isiro,2.7739,27.616,18.99000000000001,99,100,1.12,CD,1667866549
236,avera,33.194,-82.5271,21.420000000000016,64,65,2.42,US,1667866574
237,bayir,37.2687,28.2167,8.29000000000002,79,0,1.91,TR,1667866574
238,raudeberg,61.9875,5.1352,7.3700000000000045,58,36,4.74,NO,1667866575
239,faanui,-16.4833,-151.75,25.970000000000027,74,17,2.98,PF,1667866575
240,novyy urengoy,66.0833,76.6333,-7.269999999999982,95,100,3.28,RU,1667866576
241,nikolskoye,59.7035,30.7861,3.9399999999999977,94,100,3.58,RU,1667866577
242,joshimath,30.5667,79.5667,8.490000000000009,31,0,3.24,IN,1667866577
243,georgetown,5.4112,100.3354,27.910000000000025,82,20,0.0,MY,1667866292
244,manakara,-22.1333,48.0167,21.590000000000032,89,99,2.97,MG,1667866578
245,rena,61.1348,11.3641,4.32000000000005,98,100,0.5,NO,1667866579
246,kodiak,57.79,-152.4072,3.730000000000018,87,100,7.2,US,1667866579
247,lompoc,34.6391,-120.4579,15.850000000000023,78,40,3.6,US,1667866579
248,flinders,-34.5833,150.8552,22.430000000000007,66,45,3.69,AU,1667866351
249,christchurch,-43.5333,172.6333,17.450000000000045,63,40,3.6,NZ,1667866464
250,mogadishu,2.0371,45.3438,25.460000000000036,81,50,3.47,SO,1667866580
251,esperance,-33.8667,121.9,14.910000000000025,76,99,6.92,AU,1667866581
252,mezen,65.8522,44.24,1.0500000000000114,99,100,2.44,RU,1667866581
253,kaeo,-35.1,173.7833,15.740000000000009,95,100,7.1,NZ,1667866582
254,urumqi,43.801,87.6005,0.5300000000000296,87,96,2.0,CN,1667866424
255,palmeira,-25.4294,-50.0064,10.740000000000009,93,21,2.71,BR,1667866582
256,zorritos,-3.6805,-80.6782,21.160000000000025,82,25,3.64,PE,1667866583
257,bagdarin,54.4333,113.6,-6.849999999999966,94,100,1.24,RU,1667866341
258,kaitangata,-46.2817,169.8464,14.950000000000045,65,62,2.08,NZ,1667866583
259,korem,12.5058,39.5228,10.840000000000032,61,13,0.8,ET,1667866584
260,mbengwi,6.0167,10.0,16.99000000000001,89,100,0.68,CM,1667866584
261,chimore,-16.9833,-65.1333,25.960000000000036,41,50,1.11,BO,1667866584
262,goba,7.0167,39.9833,7.53000000000003,86,69,2.38,ET,1667866578
263,talnakh,69.4865,88.3972,-19.889999999999986,100,95,2.92,RU,1667866585
264,bhander,25.7333,78.75,22.370000000000005,51,100,2.56,IN,1667866585
265,severo-kurilsk,50.6789,156.125,3.25,85,90,5.56,RU,1667866586
266,aykhal,66.0,111.5,-20.46999999999997,100,99,1.26,RU,1667866586
267,puerto escondido,15.85,-97.0667,28.460000000000036,65,75,2.57,MX,1667866587
268,dingle,10.9995,122.6711,27.400000000000034,85,88,3.06,PH,1667866587
269,misratah,32.3754,15.0925,20.950000000000045,61,93,4.23,LY,1667866440
270,puri,19.8,85.85,21.29000000000002,76,60,2.18,IN,1667866587
271,castro,-24.7911,-50.0119,10.610000000000014,90,7,2.55,BR,1667866588
272,vardo,70.3705,31.1107,0.9900000000000091,86,75,2.06,NO,1667866588
273,turukhansk,65.8167,87.9833,-8.539999999999964,95,100,5.37,RU,1667866589
274,yar-sale,66.8333,70.8333,-6.1299999999999955,96,100,2.71,RU,1667866589
275,ayaviri,-14.8864,-70.5889,10.07000000000005,47,93,2.35,PE,1667866590
276,balikpapan,-1.2675,116.8289,26.55000000000001,94,20,2.57,ID,1667866590
277,olinda,-8.0089,-34.8553,26.850000000000023,74,40,3.09,BR,1667866590
278,caravelas,-17.7125,-39.2481,21.27000000000004,73,100,2.57,BR,1667866591
279,cabo san lucas,22.8909,-109.9124,27.610000000000014,67,20,7.2,MX,1667866591
280,mildura,-34.2,142.15,27.260000000000048,47,4,5.5,AU,1667866591
281,palmer,42.1584,-72.3287,15.670000000000016,25,2,5.41,US,1667866592
282,laurel,39.0993,-76.8483,20.890000000000043,52,0,2.06,US,1667866592
283,upernavik,72.7868,-56.1549,-11.419999999999959,88,100,3.78,GL,1667866593
284,moron,-34.6534,-58.6198,20.0,80,0,4.11,AR,1667866593
285,grindavik,63.8424,-22.4338,5.970000000000027,87,75,7.2,IS,1667866594
286,muros,42.7762,-9.0603,17.05000000000001,90,81,7.99,ES,1667866594
287,dubti,11.7361,41.0853,26.680000000000007,52,17,3.53,ET,1667866594
288,zhuhai,22.2769,113.5678,20.879999999999995,94,40,6.69,CN,1667866595
289,zhigansk,66.7697,123.3711,-22.629999999999967,94,100,2.75,RU,1667866595
290,vikhorevka,56.1201,101.1636,-4.229999999999961,83,99,4.11,RU,1667866595
291,black river,18.0264,-77.8487,26.07000000000005,71,35,0.89,JM,1667866596
292,manokwari,-0.8667,134.0833,28.180000000000007,72,85,1.61,ID,1667866596
293,boueni,-12.9025,45.0761,25.99000000000001,80,7,4.51,YT,1667866597
294,zykovo,55.9519,93.1461,-1.589999999999975,91,83,1.5,RU,1667866597
295,nanortalik,60.1432,-45.2371,-2.17999999999995,88,100,1.2,GL,1667866597
296,san quintin,30.4833,-115.95,18.810000000000002,78,76,5.93,MX,1667866390
297,kargil,34.5667,76.1,-3.17999999999995,47,13,1.53,IN,1667866598
298,dunedin,-45.8742,170.5036,14.770000000000039,70,48,4.17,NZ,1667866598
299,bodden town,19.2833,-81.25,28.0,78,40,5.66,KY,1667866599
300,mokhsogollokh,61.4681,128.9203,-29.50999999999999,99,22,0.85,RU,1667866599
301,winslow,35.0242,-110.6974,18.100000000000023,22,0,8.75,US,1667866600
302,amga,60.8953,131.9608,-19.019999999999982,94,100,1.31,RU,1667866600
303,camacha,33.0833,-16.3333,16.680000000000007,100,20,1.03,PT,1667866600
304,ulaanbaatar,47.9077,106.8832,-5.649999999999977,73,47,1.92,MN,1667866601
305,vanimo,-2.6741,141.3028,27.450000000000045,83,96,1.62,PG,1667866540
306,arlit,18.7369,7.3853,22.200000000000045,20,12,3.8,NE,1667866601
307,ancud,-41.8697,-73.8203,12.050000000000011,95,83,2.19,CL,1667866602
308,darnah,32.767,22.6367,19.29000000000002,71,1,6.15,LY,1667866538
309,te anau,-45.4167,167.7167,18.189999999999998,48,55,1.72,NZ,1667866603
310,tsiroanomandidy,-18.7667,46.0333,18.910000000000025,89,98,2.11,MG,1667866603
311,gornyak,50.9942,81.4661,-1.259999999999991,72,98,1.08,RU,1667866604
312,general roca,-39.0333,-67.5833,27.25,38,47,0.89,AR,1667866604
313,lagoa,39.05,-27.9833,17.200000000000045,68,100,8.67,PT,1667866604
314,shellbrook,53.2168,-106.4011,-12.42999999999995,91,100,6.73,CA,1667866605
315,kizukuri,40.8061,140.3861,10.53000000000003,91,65,1.31,JP,1667866605
316,vestmannaeyjar,63.4427,-20.2734,5.580000000000041,86,100,6.87,IS,1667866606
317,jiujiang,29.7333,115.9833,18.03000000000003,51,0,3.38,CN,1667866606
318,evensk,61.95,159.2333,-3.8100000000000023,69,100,4.28,RU,1667866343
319,bubaque,11.2833,-15.8333,28.75,65,89,6.08,GW,1667866606
320,pevek,69.7008,170.3133,-16.779999999999973,94,9,0.91,RU,1667866607
321,prieska,-29.6641,22.7474,20.54000000000002,51,100,1.56,ZA,1667866607
322,kutum,14.2,24.6667,19.870000000000005,27,28,3.5,SD,1667866608
323,birao,10.2849,22.7882,23.710000000000036,29,23,2.35,CF,1667866608
324,ixtapa,20.7,-105.2,26.79000000000002,69,0,3.6,MX,1667866608
325,alofi,-19.0595,-169.9187,26.939999999999998,65,75,6.17,NU,1667866609
326,anuradhapura,8.3565,80.4173,22.840000000000032,95,100,1.44,LK,1667866609
327,taoudenni,22.6783,-3.9836,24.150000000000034,18,27,5.29,ML,1667866609
328,chiang khong,20.2613,100.4046,16.450000000000045,87,0,0.77,TH,1667866610
329,coquimbo,-29.9533,-71.3436,13.850000000000023,88,100,1.54,CL,1667866611
330,qaqortoq,60.7167,-46.0333,-3.5299999999999727,87,100,2.46,GL,1667866611
331,socorro,31.6546,-106.3033,21.560000000000002,23,75,2.06,US,1667866607
332,hurricane,37.1753,-113.2899,20.189999999999998,38,37,7.23,US,1667866612
333,narsaq,60.9167,-46.05,0.12000000000000455,78,100,2.94,GL,1667866612
334,bilma,18.6853,12.9164,22.05000000000001,20,0,3.84,NE,1667866612
335,nuuk,64.1835,-51.7216,-7.659999999999968,73,20,6.17,GL,1667866350
336,sivaki,52.6333,126.75,-8.109999999999957,87,14,1.42,RU,1667866336
337,houma,29.5958,-90.7195,26.0,90,0,2.57,US,1667866555
338,lindi,-10.0,39.7167,22.890000000000043,92,24,1.66,TZ,1667866613
339,khandbari,27.3747,87.2039,15.140000000000043,80,76,0.78,NP,1667866614
340,coahuayana,18.7333,-103.6833,25.840000000000032,84,13,1.7,MX,1667866614
341,namibe,-15.1961,12.1522,20.150000000000034,76,2,3.27,AO,1667866615
342,nioro,13.35,-15.75,24.200000000000045,63,95,2.62,GM,1667866615
343,maceio,-9.6658,-35.7353,23.689999999999998,94,20,2.06,BR,1667866615
344,marawi,7.9986,124.2928,24.180000000000007,81,49,0.27,PH,1667866616
345,anage,-14.6122,-41.1356,22.600000000000023,63,96,1.83,BR,1667866616
346,manicore,-5.8092,-61.3003,24.970000000000027,88,0,1.54,BR,1667866617
347,ambilobe,-13.2,49.05,21.99000000000001,74,88,2.32,MG,1667866618
348,canavieiras,-15.675,-38.9472,20.910000000000025,80,95,2.15,BR,1667866618
349,asfi,32.2994,-9.2372,17.910000000000025,83,44,1.67,MA,1667866618
350,axim,4.8699,-2.2405,25.710000000000036,86,100,2.25,GH,1667866584
351,keti bandar,24.1447,67.4497,24.79000000000002,71,1,2.08,PK,1667866498
352,puerto leguizamo,-0.1934,-74.7819,25.49000000000001,74,98,0.42,CO,1667866619
353,egvekinot,66.3167,-179.1667,-7.039999999999964,86,100,6.99,RU,1667866346
354,mineros,-17.1167,-63.2333,25.060000000000002,37,1,2.2,BO,1667866620
355,ucluelet,48.9329,-125.5528,6.160000000000025,76,81,5.78,CA,1667866620
356,bandarbeyla,9.4942,50.8122,25.340000000000032,75,2,1.58,SO,1667866620
357,laguna,38.421,-121.4238,14.950000000000045,72,75,4.12,US,1667866621
358,tamale,9.4008,-0.8393,25.610000000000014,23,61,1.13,GH,1667866621
359,bengkulu,-3.8004,102.2655,23.53000000000003,91,100,1.21,ID,1667866353
360,saint-pierre,-21.3393,55.4781,21.82000000000005,68,0,3.09,RE,1667866622
361,mount juliet,36.2001,-86.5186,22.28000000000003,66,75,3.6,US,1667866490
362,chokurdakh,70.6333,147.9167,-24.599999999999966,95,72,5.23,RU,1667866623
363,pinawa,50.1489,-95.8811,-2.4599999999999795,78,100,1.05,CA,1667866623
364,khani,41.9563,42.9566,7.760000000000048,68,100,2.79,GE,1667866624
365,feicheng,35.2606,117.9675,11.310000000000002,66,0,1.14,CN,1667866624
366,juneau,58.3019,-134.4197,-2.0,100,20,7.2,US,1667866435
367,kavieng,-2.5744,150.7967,28.99000000000001,70,90,2.43,PG,1667866625
368,lethem,3.3803,-59.7968,24.610000000000014,91,100,2.22,GY,1667866625
369,awbari,26.5921,12.7805,14.480000000000018,43,0,2.38,LY,1667866626
370,anloga,5.7947,0.8973,26.950000000000045,81,97,2.22,GH,1667866487
371,aswan,24.0934,32.907,19.710000000000036,33,0,3.82,EG,1667866626
372,huarmey,-10.0681,-78.1522,18.629999999999995,81,20,3.22,PE,1667866627
373,mulege,26.8833,-111.9833,24.82000000000005,43,97,2.27,MX,1667866627
374,klaksvik,62.2266,-6.589,9.510000000000048,90,96,15.4,FO,1667866628
375,rabat,33.9911,-6.8401,16.689999999999998,97,22,0.0,MA,1667866628
376,camopi,3.1655,-52.3158,22.590000000000032,98,87,1.3,GF,1667866629
377,carnarvon,-24.8667,113.6333,20.30000000000001,58,9,6.24,AU,1667866629
378,fomboni,-12.28,43.7425,25.689999999999998,80,5,6.64,KM,1667866630
379,ponezhukay,44.8876,39.3855,-0.060000000000002274,78,100,2.58,RU,1667866630
380,canelones,-34.6444,-56.2886,17.840000000000032,63,0,5.68,UY,1667866631
381,chebarkul,54.9749,60.3633,-4.8799999999999955,93,86,1.74,RU,1667866632
382,la pila,22.05,-100.8667,18.82000000000005,56,0,4.95,MX,1667866632
383,belmonte,-15.8631,-38.8828,21.99000000000001,76,98,3.57,BR,1667866430
384,atar,20.5169,-13.0499,26.55000000000001,16,9,1.76,MR,1667866633
385,nayoro,44.3506,142.4578,6.260000000000048,66,85,2.67,JP,1667866633
386,zalantun,48.0,122.7167,-0.2899999999999636,60,70,1.55,CN,1667866634
387,broken hill,-31.95,141.4333,23.720000000000027,38,41,3.25,AU,1667866556
388,cockburn town,21.4612,-71.1419,26.879999999999995,73,76,3.81,TC,1667866352
389,faya,18.3851,42.4509,14.29000000000002,85,9,1.56,SA,1667866635
390,astoria,46.1879,-123.8313,7.140000000000043,93,100,3.09,US,1667866636
391,kaputa,-8.4689,29.6619,21.30000000000001,85,100,1.14,ZM,1667866636
392,moscow,55.7522,37.6156,2.430000000000007,94,100,3.77,RU,1667866357
393,octeville,49.6261,-1.6435,14.270000000000039,67,0,10.29,FR,1667866637
394,enshi,30.3,109.4833,14.670000000000016,91,6,0.25,CN,1667866638
395,candido mendes,-1.4467,-45.7167,23.879999999999995,92,62,1.84,BR,1667866638
396,zhangjiakou,40.81,114.8794,2.3700000000000045,29,0,0.32,CN,1667866466
397,westport,41.1415,-73.3579,20.970000000000027,28,0,5.14,US,1667866639
398,ust-kalmanka,52.1207,83.305,-1.42999999999995,81,100,2.23,RU,1667866639
399,chapais,49.7834,-74.8492,-2.1200000000000045,76,99,7.38,CA,1667866527
400,yaan,7.3833,8.5667,24.0,43,84,0.58,NG,1667866640
401,edd,13.9297,41.6925,28.510000000000048,63,6,6.03,ER,1667866640
402,centralia,46.7162,-122.9543,6.3799999999999955,90,75,5.66,US,1667866370
403,airai,-8.9266,125.4092,21.07000000000005,66,100,0.37,TL,1667866641
404,teguldet,57.3064,88.1667,-6.019999999999982,98,96,1.28,RU,1667866641
405,xuzhou,34.1805,117.1571,12.840000000000032,67,50,3.11,CN,1667866642
406,bojonegoro,-7.1502,111.8817,26.220000000000027,81,100,0.98,ID,1667866642
407,arcos de la frontera,36.7508,-5.8106,14.980000000000018,93,6,1.63,ES,1667866643
408,bonfim,3.0833,-59.95,25.560000000000002,85,100,1.51,BR,1667866643
409,adrian,41.8975,-84.0372,10.240000000000009,49,0,3.6,US,1667866380
410,paita,-5.0892,-81.1144,17.760000000000048,85,26,6.6,PE,1667866644
411,buenos aires,-34.6132,-58.3772,19.99000000000001,81,0,7.2,AR,1667866500
412,grand gaube,-20.0064,57.6608,20.77000000000004,78,3,1.79,MU,1667866469
413,idah,7.1065,6.7342,23.200000000000045,66,72,0.26,NG,1667866645
414,wattegama,6.7989,81.4808,22.74000000000001,91,100,1.59,LK,1667866645
415,san andres,12.5847,-81.7006,28.010000000000048,69,75,2.57,CO,1667866646
416,ojinaga,29.5667,-104.4167,27.53000000000003,28,0,3.09,MX,1667866646
417,vestmanna,62.1564,-7.1664,8.510000000000048,87,100,15.95,FO,1667866647
418,beroroha,-21.6667,45.1667,23.53000000000003,77,62,0.43,MG,1667866647
419,imbituba,-28.24,-48.6703,15.960000000000036,88,31,3.3,BR,1667866648
420,balykshi,47.0667,51.8667,2.0,75,75,1.0,KZ,1667866648
421,roebourne,-20.7833,117.1333,22.24000000000001,48,0,6.68,AU,1667866649
422,kikwit,-5.041,18.8162,20.920000000000016,97,100,0.15,CD,1667866649
423,norman wells,65.282,-126.8329,-15.979999999999961,85,20,4.12,CA,1667866650
424,namatanai,-3.6667,152.4333,29.100000000000023,69,86,2.6,PG,1667866420
425,abu samrah,35.3029,37.1841,14.53000000000003,77,100,3.44,SY,1667866650
426,partyzany,46.3314,34.7503,2.8799999999999955,86,66,4.44,UA,1667866651
427,kahului,20.8947,-156.47,31.010000000000048,62,0,10.8,US,1667866651
428,whitehorse,60.7161,-135.0538,-15.5,67,17,5.81,CA,1667866411
429,menongue,-14.6585,17.691,18.170000000000016,68,95,1.36,AO,1667866652
430,belyy yar,53.6039,91.3903,-5.079999999999984,89,100,1.0,RU,1667866652
431,leh,34.1667,77.5833,-3.359999999999957,75,63,1.11,IN,1667866652
432,cienaga,11.007,-74.2476,27.210000000000036,78,75,2.57,CO,1667866653
433,maebaru,33.55,130.2,18.200000000000045,51,0,0.65,JP,1667866653
434,diyarb najm,30.7542,31.4393,17.060000000000002,81,0,3.16,EG,1667866654
435,san cristobal,7.7669,-72.225,22.100000000000023,97,89,1.06,VE,1667866654
436,changji,44.0167,87.3167,1.4399999999999977,93,75,1.0,CN,1667866654
437,shache,38.4167,77.2406,5.410000000000025,41,86,0.9,CN,1667866655
438,haines junction,60.7522,-137.5108,-20.029999999999973,77,21,0.51,CA,1667866655
439,port blair,11.6667,92.75,26.02000000000004,89,100,1.03,IN,1667866656
440,boa vista,2.8197,-60.6733,26.99000000000001,78,40,3.09,BR,1667866656
441,finnsnes,69.2296,17.9811,1.3400000000000318,98,99,0.41,NO,1667866656
442,srandakan,-7.9386,110.2506,25.450000000000045,85,97,1.72,ID,1667866657
443,woburn,42.4793,-71.1523,18.32000000000005,23,0,10.29,US,1667866657
444,caconda,-13.7333,15.0667,16.120000000000005,86,14,1.57,AO,1667866657
445,phan thiet,10.9333,108.1,25.0,84,100,1.28,VN,1667866658
446,komsomolskoye,55.2567,47.5461,0.4800000000000182,95,96,3.56,RU,1667866658
447,dwarka,22.2394,68.9678,25.24000000000001,60,1,3.83,IN,1667866658
448,kannur,11.8675,75.3576,22.870000000000005,76,32,3.06,IN,1667866659
449,yarada,17.65,83.2667,23.30000000000001,80,15,2.96,IN,1667866659
450,the valley,18.217,-63.0578,26.170000000000016,83,100,6.97,AI,1667866394
451,mana,5.6592,-53.7767,24.350000000000023,91,98,1.24,GF,1667866660
452,reconquista,-29.15,-59.65,21.560000000000002,34,23,4.7,AR,1667866660
453,sao joao do paraiso,-15.3136,-42.0144,19.5,69,100,2.88,BR,1667866660
454,mayahi,13.9553,7.6712,24.02000000000004,16,6,4.21,NE,1667866661
455,san,13.3034,-4.8956,24.890000000000043,18,19,3.05,ML,1667866518
456,naantali,60.4674,22.0243,9.360000000000014,93,100,4.63,FI,1667866661
457,sakakah,29.9697,40.2064,14.760000000000048,37,100,2.12,SA,1667866662
458,bathsheba,13.2167,-59.5167,28.340000000000032,78,20,7.72,BB,1667866662
459,namtsy,62.7161,129.6658,-22.829999999999984,96,100,0.83,RU,1667866662
460,takoradi,4.8845,-1.7554,26.100000000000023,85,85,2.56,GH,1667866478
461,borgarnes,64.5383,-21.9206,6.03000000000003,81,100,4.31,IS,1667866663
462,fuling,29.7022,107.3919,19.150000000000034,69,86,1.19,CN,1667866498
463,sussex,41.1834,-74.6663,19.07000000000005,33,0,2.06,US,1667866574
464,mount gambier,-37.8333,140.7667,23.700000000000045,50,0,3.14,AU,1667866664
465,bozoum,6.3193,16.3799,21.260000000000048,66,94,1.33,CF,1667866664
466,katobu,-4.9408,122.5276,26.83000000000004,81,99,0.09,ID,1667866665
467,never,46.9896,3.159,7.860000000000014,84,100,2.92,FR,1667866665
468,praia da vitoria,38.7333,-27.0667,15.980000000000018,94,75,5.92,PT,1667866666
469,charters towers,-20.1,146.2667,27.650000000000034,42,0,4.78,AU,1667866666
470,montpellier,43.6109,3.8772,18.650000000000034,100,100,3.6,FR,1667866553
471,bosobolo,4.1833,19.9,21.170000000000016,98,99,1.09,CD,1667866666
472,ossora,59.2353,163.0719,-1.1599999999999682,89,100,2.59,RU,1667866667
473,taltal,-25.4,-70.4833,16.04000000000002,79,30,2.08,CL,1667866638
474,taree,-31.9,152.4667,23.370000000000005,68,26,2.82,AU,1667866668
475,guarda,40.5373,-7.2658,12.350000000000023,97,81,3.23,PT,1667866668
476,montepuez,-13.1256,38.9997,20.24000000000001,90,27,2.72,MZ,1667866668
477,pyay,18.8167,95.2167,20.340000000000032,86,13,2.26,MM,1667866669
478,marabba,12.35,32.1833,28.07000000000005,18,63,5.38,SD,1667866669
479,nova vicosa,-17.8919,-39.3719,21.939999999999998,72,99,3.36,BR,1667866669
480,piacabucu,-10.4056,-36.4344,24.060000000000002,91,59,2.84,BR,1667866670
481,mizan teferi,6.9833,35.5833,15.550000000000011,86,97,1.15,ET,1667866670
482,dolinsk,47.35,142.8,4.900000000000034,60,29,2.05,RU,1667866671
483,nelson bay,-32.7167,152.15,22.83000000000004,65,35,1.79,AU,1667866671
484,najran,17.4924,44.1277,16.360000000000014,31,4,1.08,SA,1667866672
485,abu kamal,34.4506,40.9171,17.100000000000023,50,56,3.39,SY,1667866672
486,lata,40.1629,-8.3327,16.07000000000005,94,99,3.0,PT,1667866672
487,shitanjing,39.2342,106.3439,4.910000000000025,47,75,3.28,CN,1667866673
488,preobrazheniye,42.9019,133.9064,5.260000000000048,58,1,3.76,RU,1667866673
489,horsens,55.8607,9.8503,12.910000000000025,91,92,5.78,DK,1667866674
490,sistranda,63.7256,8.834,4.980000000000018,67,100,2.49,NO,1667866674
491,kulu,39.0951,33.0799,10.330000000000041,60,92,2.53,TR,1667866674
492,okhotsk,59.3833,143.3,-13.620000000000005,69,31,8.45,RU,1667866675
493,utica,43.1009,-75.2327,9.950000000000045,60,0,1.34,US,1667866676
494,paamiut,61.994,-49.6678,-7.949999999999989,59,99,2.95,GL,1667866676
495,itaituba,-4.2761,-55.9836,23.30000000000001,96,98,0.62,BR,1667866676
496,wiang sa,8.6359,99.3666,24.379999999999995,92,98,0.95,TH,1667866677
497,bonthe,7.5264,-12.505,25.82000000000005,84,99,1.57,SL,1667866677
498,churapcha,62.0025,132.4325,-20.919999999999987,98,100,0.31,RU,1667866678
499,teya,60.3778,92.6267,-8.539999999999964,95,99,1.81,RU,1667866678
500,port hardy,50.6996,-127.4199,2.1000000000000227,51,20,9.26,CA,1667866679
501,buchanan,5.8808,-10.0467,25.24000000000001,87,100,1.91,LR,1667866679
502,sumbe,-11.2061,13.8437,24.960000000000036,81,66,3.17,AO,1667866679
503,novoagansk,61.9449,76.6625,-8.629999999999995,97,99,3.24,RU,1667866479
504,waterloo,43.4668,-80.5164,5.360000000000014,71,0,3.09,CA,1667866579
505,erzin,36.9559,36.2,15.910000000000025,73,100,1.07,TR,1667866680
506,bria,6.5423,21.9863,21.910000000000025,89,100,0.82,CF,1667866462
507,half moon bay,37.4636,-122.4286,13.970000000000027,75,40,7.72,US,1667866680
508,nouadhibou,20.931,-17.0347,19.99000000000001,77,6,3.6,MR,1667866681
509,mahibadhoo,3.7833,72.9667,27.600000000000023,73,48,4.92,MV,1667866681
510,kudat,6.8837,116.8477,27.960000000000036,83,20,1.03,MY,1667866682
511,skagen,57.7209,10.5839,10.670000000000016,92,72,5.98,DK,1667866682
512,guerrero negro,27.9769,-114.0611,19.730000000000018,70,87,6.26,MX,1667866683
513,inza,53.8533,46.3586,-0.7099999999999795,87,89,1.34,RU,1667866683
514,warrington,53.3925,-2.5802,14.400000000000034,89,75,10.8,GB,1667866684
515,acapulco,16.8634,-99.8901,27.900000000000034,83,40,3.6,MX,1667866684
516,juybar,36.6412,52.9124,10.270000000000039,79,77,3.51,IR,1667866685
517,pleasanton,37.6624,-121.8747,13.800000000000011,67,100,5.14,US,1667866685
518,paidha,2.4167,30.9855,16.58000000000004,90,100,1.54,UG,1667866686
519,eureka,40.8021,-124.1637,9.550000000000011,88,100,2.68,US,1667866686
520,ilebo,-4.3167,20.5833,19.930000000000007,96,75,0.27,CD,1667866687
521,tanabe,33.7333,135.3667,17.560000000000002,59,20,6.17,JP,1667866687
522,orebro,59.2741,15.2066,9.32000000000005,87,20,5.14,SE,1667866687
523,koumac,-20.5667,164.2833,26.670000000000016,76,100,6.5,NC,1667866688
524,anadyr,64.75,177.4833,-2.7199999999999704,100,75,7.0,RU,1667866688
525,sao jose da coroa grande,-8.8978,-35.1478,24.760000000000048,80,64,0.8,BR,1667866688
526,manyana,-23.4,21.7167,14.760000000000048,90,26,1.57,BW,1667866689
527,puquio,-14.7,-74.1333,8.930000000000007,45,2,1.88,PE,1667866689
528,byron bay,-28.65,153.6167,16.980000000000018,72,58,3.04,AU,1667866249
529,mishelevka,52.8575,103.1719,-2.859999999999957,93,100,2.61,RU,1667866690
530,sorland,67.667,12.6934,5.920000000000016,67,22,10.2,NO,1667866470
531,pinega,64.7001,43.3936,2.4700000000000273,98,100,3.01,RU,1667866474
532,alice springs,-23.7,133.8833,30.75,13,38,4.12,AU,1667866691
533,saint-joseph,-21.3667,55.6167,21.210000000000036,78,50,2.8,RE,1667866691
534,pacific grove,36.6177,-121.9166,15.189999999999998,66,100,4.12,US,1667866691
535,new waterford,40.8451,-80.6145,10.160000000000025,45,23,2.67,US,1667866692
536,nishihara,26.1842,127.7558,24.03000000000003,83,100,5.14,JP,1667866692
537,desbiens,48.4178,-71.9495,3.3600000000000136,61,73,10.17,CA,1667866693
538,glamoc,44.0458,16.8486,6.0400000000000205,85,50,0.43,BA,1667866694
539,scarborough,54.2797,-0.4044,13.28000000000003,88,100,3.13,GB,1667866447
540,umea,63.8284,20.2597,1.0600000000000023,100,100,4.12,SE,1667866695
541,prachatice,49.0129,13.9975,6.82000000000005,94,69,2.29,CZ,1667866695
542,idrinskoye,54.3708,92.1358,-2.67999999999995,67,97,1.55,RU,1667866695
543,mizdah,31.4451,12.9801,11.25,77,0,0.67,LY,1667866696
544,fare,-16.7,-151.0167,25.910000000000025,75,6,3.55,PF,1667866696
545,chengde,40.9725,117.9361,2.840000000000032,34,5,0.72,CN,1667866697
546,punta alta,-38.8759,-62.0736,22.350000000000023,37,5,6.88,AR,1667866697
547,soyo,-6.1349,12.3689,25.590000000000032,85,32,3.08,AO,1667866697
548,victor harbor,-35.5667,138.6167,23.890000000000043,65,67,4.35,AU,1667866698
549,nantucket,41.2835,-70.0995,18.060000000000002,94,0,4.12,US,1667866589
550,mhango,-3.2833,32.85,19.49000000000001,83,92,0.56,TZ,1667866699
551,kamenka,51.3223,42.7678,0.22000000000002728,85,96,2.61,RU,1667866699
552,itarema,-2.9248,-39.9167,26.200000000000045,73,84,6.27,BR,1667866700
553,heze,35.2431,115.4411,10.720000000000027,58,7,2.07,CN,1667866700
554,sao filipe,14.8961,-24.4956,25.590000000000032,67,69,1.79,CV,1667866700
555,iwanai,42.9744,140.5089,7.840000000000032,59,98,1.95,JP,1667866701
556,northam,51.0333,-4.2167,10.770000000000039,93,100,8.92,GB,1667866701
557,ustye,59.6304,39.736,1.3400000000000318,93,100,3.83,RU,1667866701
558,sergeyevka,53.88,67.4158,-3.159999999999968,95,98,1.11,KZ,1667866702
559,pontal do parana,-25.6533,-48.5128,16.340000000000032,87,12,2.59,BR,1667866702
560,bien hoa,10.95,106.8167,25.99000000000001,91,100,1.51,VN,1667866703
561,passos,-20.7189,-46.6097,18.74000000000001,77,75,1.24,BR,1667866703
562,nakamura,32.9833,132.9333,15.770000000000039,76,1,2.11,JP,1667866704
563,lucea,18.451,-78.1736,27.920000000000016,75,46,3.63,JM,1667866704
564,kilindoni,-7.9139,39.6668,25.340000000000032,83,4,4.52,TZ,1667866705
565,thanh hoa,19.8,105.7667,20.189999999999998,87,65,1.42,VN,1667866705
566,tiarei,-17.5333,-149.3333,28.010000000000048,82,3,3.88,PF,1667866705
567,atikokan,48.7555,-91.6216,-3.1200000000000045,86,90,0.68,CA,1667866706
568,elko,41.0002,-115.5012,0.010000000000047748,92,100,3.13,US,1667866706
569,kachug,53.9606,105.8817,-4.42999999999995,90,100,1.82,RU,1667866706
570,oga,46.4631,10.347,3.3500000000000227,72,80,1.49,IT,1667866707
571,yarmouth,41.7057,-70.2286,20.260000000000048,62,0,8.94,US,1667866707
572,serenje,-13.2325,30.2352,18.53000000000003,74,100,1.88,ZM,1667866708
573,ikorodu,6.6191,3.5041,26.710000000000036,82,92,2.26,NG,1667866708
574,san ignacio,17.1561,-89.0714,26.08000000000004,83,0,2.06,BZ,1667866708
